City,latitude,longitude,Temperature,Humidity,Wind Speed,Cloudiness
ushuaia,-88.76281513133509,-42.546421171833714,33.8,86.0,6.93,20.0
kruisfontein,-87.05838656822984,30.369351618500275,54.47,86.0,19.71,32.0
bluff,-86.70265702535495,165.6308461080896,63.56,30.0,4.83,0.0
vaini,-81.69162311932354,-169.90337119633296,69.41,98.0,8.14,100.0
hobart,-80.36128448040012,150.30252463903338,53.6,66.0,19.46,40.0
kaitangata,-68.81159909276825,176.70251639312238,50.24,96.0,4.27,32.0
hermanus,-62.7303054548471,7.379416300873942,35.66,100.0,2.77,32.0
chuy,-56.56371684778828,-31.99741843209796,56.0,80.0,17.92,0.0
bredasdorp,-55.15189959488364,18.792906312825437,41.0,93.0,8.14,80.0
portland,-53.83882669814614,131.30261184768415,93.97,28.0,10.29,40.0
tuatapere,-53.77204818574914,160.76109384796223,47.45,100.0,4.12,92.0
albany,-51.26519551190816,114.96608975933862,75.54,88.0,2.89,90.0
castro,-50.54865248051663,-109.09755683157925,40.07,100.0,3.89,20.0
dunedin,-50.06882627645299,173.46654913653356,48.62,88.0,3.89,36.0
christchurch,-47.33024117920614,177.24515348289373,55.4,66.0,4.7,92.0
saint-philippe,-45.77505427354486,65.1498055747042,76.51,69.0,6.93,1.0
esperance,-45.17028365779797,123.48643084177576,80.6,88.0,6.93,20.0
wanaka,-44.31424936778475,168.46969843059713,45.47,77.0,2.82,8.0
margate,-43.75559096165705,43.16153224839971,53.6,66.0,19.46,40.0
souillac,-43.401758020941614,70.88824648343211,66.2,77.0,5.82,0.0
waipawa,-42.80835056079672,175.93730947449603,54.74,85.0,6.91,88.0
laguna,-42.76511563897782,-32.076784760404394,87.8,55.0,11.41,75.0
hokitika,-41.714116445392925,168.1744578539936,50.87,100.0,5.57,92.0
launceston,-41.42872220149095,151.58367528755008,51.8,71.0,19.46,75.0
viedma,-40.78685532276784,-64.39984628900714,47.72,87.0,19.6,92.0
ancud,-40.64220736235333,-78.31327247564359,39.98,89.0,4.0,36.0
neuquen,-39.444781851836325,-69.86810404864826,51.8,31.0,8.05,0.0
cidreira,-38.96040093619942,-40.91899023939027,56.27,89.0,13.96,0.0
ulladulla,-38.26041493152151,153.59722792979255,59.0,98.0,19.46,0.0
ahipara,-36.9947224271379,166.50233085631578,56.27,99.0,14.18,92.0
jamestown,-35.83067921434928,-9.550017923109806,50.6,87.0,15.9,88.0
rocha,-35.79485324940791,-52.98095274703391,56.9,76.0,12.06,0.0
george,-35.50475818616611,22.261805136324256,77.0,83.0,2.24,40.0
saint-joseph,-35.005122317330134,56.555360983681595,74.59,83.0,2.24,0.0
saldanha,-34.9276457546363,5.003770541599039,58.7,78.0,3.04,0.0
flinders,-34.34386317456227,132.27270287206363,59.0,68.0,19.46,0.0
busselton,-34.175425088217395,97.92223971076749,61.4,97.0,21.56,92.0
bowral,-34.10343527545102,149.89797107277172,59.0,69.0,19.46,0.0
mercedes,-33.441071536789586,-64.98581290906434,64.01,70.0,13.85,48.0
santiago,-33.18546476149538,-70.39035736314766,48.2,66.0,6.93,0.0
adelaide,-33.08448703190356,26.123092451415715,55.4,82.0,16.11,40.0
cabildo,-32.21452966913788,-70.95877163914665,55.4,66.0,12.75,0.0
talcahuano,-31.095615580636796,-83.16874601630462,48.2,87.0,3.36,0.0
umkomaas,-30.560785389566888,31.5722431032047,40.7,49.0,7.52,0.0
quthing,-30.50023557253529,27.636244598841728,17.66,94.0,2.1,0.0
ballina,-29.944798452121184,154.79866850926658,54.92,100.0,8.37,64.0
geraldton,-29.677370813750343,110.71470396950065,66.2,63.0,6.93,20.0
lebu,-29.420536728730113,-92.51781029587238,57.2,87.0,4.7,75.0
russell,-29.365618206945364,178.86083734685252,51.8,53.0,2.24,0.0
oranjemund,-28.57886221880996,14.659026071113658,56.81,100.0,28.16,0.0
upington,-28.520743082996006,21.772784101670823,33.8,47.0,3.36,0.0
mataura,-28.32689125402632,-150.55078467801172,48.98,100.0,4.56,68.0
mahebourg,-27.665065383677316,64.39517220703317,71.6,64.0,6.06,75.0
pisco,-27.337249583098185,-96.87372044064125,62.6,82.0,14.99,0.0
carnarvon,-27.048429959068685,101.25804590956022,19.73,69.0,3.71,0.0
avarua,-27.035168409325898,-156.365090075531,69.8,94.0,10.29,90.0
ampanihy,-26.080921570937612,43.05887726871515,55.1,81.0,2.82,0.0
kanye,-25.74265973857524,24.489673530014613,43.22,58.0,3.38,0.0
iguape,-25.396165073958386,-46.649444950830485,58.07,100.0,5.35,32.0
bundaberg,-25.002648368221898,151.86744396530833,61.58,100.0,13.67,0.0
vao,-24.949431663569328,174.52973002605586,58.07,74.0,7.25,0.0
siyabuswa,-24.835758291474576,29.204434217279754,54.11,47.0,2.82,0.0
saint-leu,-24.27043011404355,52.63114600067641,68.0,52.0,10.29,0.0
rikitea,-23.500326363253734,-125.9948283124179,73.55,100.0,7.25,24.0
tadine,-22.964592459736608,172.0091740176514,72.02,93.0,4.05,0.0
antofagasta,-22.96261546152334,-75.27885539728959,55.4,76.0,4.7,75.0
ihosy,-22.83085623019069,46.11945158092644,44.3,77.0,1.54,0.0
avera,-22.61793120853619,-153.05129402423958,76.28,88.0,3.36,40.0
mananjary,-22.164224343122953,51.62800758524304,42.95,79.0,2.82,0.0
yeppoon,-21.967968014965038,153.0488197655518,66.2,24.0,8.05,0.0
roebourne,-21.742348562270223,118.18357217202475,48.08,33.0,3.89,0.0
letlhakane,-21.68365303656917,26.26037709096252,60.95,58.0,5.28,0.0
caravelas,-20.865796649672887,-33.2596546187099,73.91,100.0,23.13,92.0
georgetown,-20.656621597769742,-22.10908652622939,77.0,94.0,4.7,20.0
mackay,-20.65212780993035,150.3237702535381,77.92,38.0,11.41,75.0
mahanoro,-20.540944391610523,51.18724238790392,59.6,100.0,3.22,0.0
quelimane,-20.465593786442128,37.85262548853157,69.8,83.0,4.7,0.0
poum,-20.113135543976597,160.31494291310116,60.14,85.0,1.99,0.0
camapua,-19.688085498001655,-54.29531570581119,72.47,67.0,9.82,12.0
ladario,-19.508160973547135,-57.021172445717085,57.08,95.0,2.26,0.0
opuwo,-19.023084605661538,14.275927644460921,52.67,65.0,4.0,0.0
mollendo,-18.925218238568675,-73.27458999394,56.72,92.0,1.77,0.0
ongandjera,-18.91278114212993,15.321646698518066,59.87,41.0,11.32,0.0
huarmey,-18.505929980839866,-93.77775270815924,61.94,73.0,3.78,0.0
namibe,-18.46501384218017,7.378272457530244,64.28,100.0,6.73,0.0
miandrivazo,-18.340024989988038,44.0193277521297,54.11,80.0,2.21,0.0
lima,-18.09265432248857,-87.95414788930191,60.32,77.0,2.21,12.0
vila,-16.93657637994194,171.54270845305234,72.46,69.0,10.29,20.0
belmonte,-16.80098253854331,-31.501673156774018,63.56,73.0,3.78,0.0
tautira,-16.773040217487676,-145.2849667480099,84.2,62.0,18.34,75.0
guiratinga,-16.602276102703826,-54.161910227349196,75.08,66.0,3.33,20.0
mahajanga,-16.16945527300345,45.12075405695114,71.6,88.0,2.24,20.0
senanga,-16.045718451456523,23.600210801005858,58.16,43.0,5.28,0.0
labuhan,-15.986247916234632,96.84530205347704,74.45,88.0,3.04,20.0
caceres,-15.685160850152968,-57.38610527515084,73.19,66.0,1.32,8.0
maroantsetra,-15.546765768778528,49.84181072883777,61.13,100.0,1.48,44.0
kununurra,-15.523520464503676,125.56491562510041,71.6,19.0,8.05,0.0
ilheus,-14.808972998944597,-39.004590499691346,75.35,100.0,6.24,100.0
broome,-14.683671037382084,117.76542121697048,66.2,93.0,3.36,80.0
mpongwe,-13.475332478041722,27.728050745761124,57.35,64.0,4.0,0.0
samarai,-12.875857060874878,151.1208048266165,77.78,100.0,11.16,80.0
hualmay,-12.704827173407025,-80.32732071660541,58.97,95.0,5.01,32.0
hithadhoo,-12.688470488253941,80.57258925419501,79.49,100.0,4.27,68.0
piacabucu,-12.178240644970202,-35.468758392228125,71.93,83.0,6.8,8.0
ambilobe,-12.110372308358635,48.47669018465129,61.31,85.0,6.02,36.0
cobija,-11.878775012255403,-67.57568013758754,72.47,93.0,1.99,0.0
tamandare,-11.824552352136038,-25.745466970628115,76.52,89.0,2.48,0.0
praya,-11.335193092366396,115.64159569123592,80.6,74.0,12.75,75.0
gamba,-8.734019347450072,1.8419393508156077,31.34,89.0,0.58,32.0
soyo,-8.185526800448713,9.323753918279664,64.46,97.0,3.33,0.0
chicama,-7.818650868131385,-79.47376946170262,62.6,82.0,9.17,90.0
kilindoni,-7.500256787347226,40.28944257793236,74.72,100.0,8.41,0.0
pringsewu,-7.364567929908887,102.69152319197377,71.03,89.0,1.7,0.0
ferrenafe,-6.621733960234224,-79.61321118139067,62.6,82.0,18.34,0.0
ialibu,-6.269611279194322,143.92132771324805,68.0,72.0,6.93,40.0
panguna,-6.142430105501262,154.49441541119813,80.12,78.0,4.72,12.0
mitsamiouli,-6.133970487003097,47.37518586947934,69.8,83.0,6.93,20.0
tshikapa,-6.042026155668381,20.55368429155493,69.95,84.0,1.99,0.0
victoria,-5.748060780697855,63.76161463743847,80.6,83.0,2.24,75.0
yurimaguas,-5.640911441655433,-76.32929168949369,77.06,84.0,2.48,24.0
kasongo-lunda,-5.4960748105949335,17.236921575727052,66.89,85.0,3.22,0.0
bulungu,-5.15508557444231,17.730121376223792,69.5,80.0,3.83,0.0
buala,-4.589831505047286,160.86437194393164,81.65,87.0,6.4,0.0
axim,-4.534137856260074,-3.4302384575076417,76.88,98.0,14.29,88.0
mweka,-4.404393604683406,21.62550141967907,73.64,86.0,2.26,8.0
tabatinga,-4.3721607246862675,-69.34049578445783,64.4,88.0,2.24,0.0
auki,-4.366744308973139,164.34811613389775,74.45,90.0,5.28,48.0
magugu,-4.113479785109831,36.02714132291143,52.22,93.0,3.11,0.0
kavieng,-3.8847360329750984,150.52804618248342,82.82,100.0,6.73,44.0
carauari,-3.81617904589163,-66.39297877831409,79.67,84.0,1.77,12.0
iquitos,-3.804931011890261,-72.28572667602984,75.2,94.0,2.48,40.0
faanui,-3.362600473092897,-158.42891311638036,80.39,99.0,20.89,24.0
vanimo,-2.955544425999591,140.50974780812987,79.4,100.0,11.1,80.0
mogadishu,-2.38834188530312,49.09987520360886,75.98,100.0,20.22,20.0
padang,-2.286803237801962,97.00163123833198,78.14,100.0,1.36,36.0
meulaboh,-1.5148654225037887,91.52289243802869,76.16,100.0,4.23,76.0
atuona,-1.3883910486945297,-146.1077523722011,76.7,100.0,14.34,44.0
kieta,-0.5522522869563886,159.80791120557745,80.21,96.0,6.02,8.0
jamame,-0.43624253894282106,43.534147806540034,76.79,84.0,13.11,92.0
kisangani,0.3984257323748608,25.464968778406217,70.76,99.0,3.27,12.0
lufilufi,1.2866388780084463,-163.44361076797648,79.76,100.0,9.6,8.0
tutoia,1.351722485649148,-41.82556646784377,80.12,79.0,14.79,12.0
manokwari,1.4664191432911622,133.92896987401252,81.65,100.0,6.62,36.0
touros,1.9202649906843305,-31.897783537428325,77.24,83.0,14.41,68.0
biak,1.9517416845025224,139.3210329271633,75.26,100.0,5.39,48.0
goderich,2.2777878098724926,-20.463063185575948,71.57,84.0,4.38,20.0
lethem,2.424617819819602,-57.95865772099614,83.81,61.0,8.81,0.0
bintulu,2.4352510847718776,114.85188312059034,77.0,88.0,6.93,75.0
katakwi,2.485695643432308,33.6470579238524,59.78,93.0,3.56,0.0
kudahuvadhoo,2.6338220809213198,65.5148718956986,83.45,100.0,16.46,12.0
lorengau,2.7424495035417635,145.59275073291946,82.1,100.0,2.33,12.0
paracuru,3.8261158131853676,-34.59281939816384,78.8,83.0,13.87,75.0
hobyo,4.377493574026744,52.20545712686359,76.7,75.0,15.64,0.0
jinka,4.589146286384079,36.731285983135706,60.23,77.0,1.59,48.0
namatanai,4.644175077959517,159.41052540482463,79.76,100.0,8.41,68.0
coahuayana,4.723873229505074,-110.18545859030559,81.65,47.0,3.11,12.0
paka,4.797479298639644,104.40438328808261,62.6,100.0,5.82,0.0
sibu,5.122179519178928,110.55294859977226,75.2,88.0,3.36,75.0
miri,5.227602432908711,111.95415257151109,68.87,91.0,4.5,48.0
eyl,5.549072503396772,53.27152056823945,78.5,73.0,21.23,8.0
sabang,5.7806949536259395,93.0551025623696,81.2,93.0,13.89,92.0
saint-georges,5.890594319737161,-47.25062575394654,66.62,97.0,3.49,68.0
ugep,5.9755288487731235,8.264913000761936,72.74,99.0,4.56,92.0
pundaguitan,6.282279004655294,126.7408572728798,84.44,96.0,10.6,88.0
bubaque,6.9428704043731955,-18.184261895405996,77.0,94.0,3.36,75.0
kalmunai,7.210151893282159,86.93763605856651,73.19,91.0,2.48,20.0
ginir,7.372436074676941,41.92507236404475,60.77,56.0,11.27,0.0
balabac,8.020944671413076,116.7560674456289,85.25,93.0,22.12,64.0
bandarbeyla,8.026808056001471,61.368142627079976,78.05,93.0,32.3,8.0
siocon,8.217493678443233,121.4652135394146,84.26,95.0,15.9,88.0
kavaratti,8.297371964549882,65.28129530271374,83.45,93.0,24.96,92.0
lagdo,8.859532230225255,13.709186057610765,80.6,78.0,6.93,0.0
itarema,8.972404883913995,-37.49439159146081,77.69,81.0,15.12,12.0
ixtapa,9.455547703215046,-105.83555423156311,86.0,70.0,4.7,90.0
lafiagi,9.621757919410669,4.758852692220955,72.65,95.0,3.38,64.0
jos,9.664843592217423,9.088348596243407,66.17,92.0,4.05,56.0
pilar,10.525024334303396,129.1405392242965,61.99,55.0,9.17,0.0
carora,10.556653013081458,-70.22400136548818,84.17,44.0,15.08,0.0
nagapattinam,10.879922971672983,80.48178271428327,77.78,79.0,10.38,64.0
acapulco,11.573957958054336,-100.8931303483985,87.8,70.0,5.82,75.0
caraballeda,11.618285920207882,-66.76026409539298,80.03,96.0,17.31,24.0
dubti,11.877501593512761,41.23037252625673,72.2,78.0,3.78,64.0
tagusao,11.951078003669764,115.25665939821738,80.39,93.0,15.19,68.0
cayenne,12.245777050903783,-44.043689843739884,75.2,100.0,9.31,20.0
airai,12.745015046242173,138.73031164645317,72.74,66.0,2.26,0.0
bereda,12.974894204191813,52.56908354792256,62.6,93.0,1.12,92.0
champerico,13.502814628678323,-91.96203012615132,84.2,62.0,12.75,75.0
kutum,13.840532694514863,25.52967176191075,62.48,96.0,2.89,44.0
butaritari,13.869669965851585,165.48652391097283,83.18,100.0,7.25,8.0
rincon,13.986639192096376,-68.1095898363625,83.41,83.0,20.8,75.0
salalah,13.989726308288724,54.206221004759584,78.8,88.0,2.24,90.0
kovur,14.456427365519033,80.57119139712347,81.65,64.0,12.66,88.0
pedernales,15.025999081796229,-72.52110783898058,76.52,80.0,6.85,68.0
sinnamary,15.044423303584182,-45.652609304825376,81.92,94.0,12.88,20.0
guanica,15.315708071150425,-67.30633319420652,80.6,83.0,9.17,75.0
filingue,15.460038238728103,2.889007594063827,74.45,92.0,7.85,0.0
dangriga,16.489639903771703,-88.035007857355,86.0,79.0,8.05,75.0
biltine,16.80633595744858,22.60207048913918,68.06,97.0,5.73,48.0
pakxan,18.049330816497033,103.56299389085763,72.38,98.0,1.54,92.0
bilma,18.192134345928977,12.214585681224605,82.55,49.0,8.37,0.0
saint-francois,18.57430225519333,-54.03380270459394,68.0,88.0,3.36,0.0
kidal,18.674505902686903,2.7244176605206007,84.8,53.0,10.87,8.0
xico,19.291827980865904,-98.98941041962627,63.83,69.0,3.27,76.0
faya,19.41191849098523,17.274875360436,64.35,59.0,4.5,0.0
nouadhibou,19.633298889638226,-20.379742966750854,68.0,94.0,5.82,75.0
qiongshan,19.690485805712413,110.42576967363345,84.2,89.0,6.71,40.0
nimaparha,19.882820306536033,86.04010688661327,78.68,100.0,9.08,68.0
kapaa,20.0135661598203,-172.18178320472646,86.16,66.0,18.34,75.0
basco,20.12555706209642,124.97048108926168,78.13,74.0,5.82,1.0
umred,20.768180071552237,79.38772058595339,75.2,94.0,4.7,90.0
akot,20.97484446721988,77.11118885887794,73.28,97.0,5.79,92.0
riyadh,21.006458816500654,47.35448633733819,93.2,10.0,8.05,0.0
atar,21.096364834568377,-14.351500160029218,90.2,37.0,8.59,8.0
bhadrak,21.26994874425712,86.42755714569779,75.44,99.0,6.02,92.0
yago,21.772637388183057,-105.10725612486472,68.0,100.0,4.7,90.0
samana,22.116313246644424,-67.21900774788762,70.4,98.0,2.21,80.0
nizwa,22.43983777663327,57.933752198155446,82.64,22.0,1.7,80.0
katsuura,22.766851286810805,149.51168580878993,80.6,61.0,3.36,75.0
taoudenni,22.95480479533235,-8.697645506414347,83.0,49.0,3.71,48.0
yuli,23.022665328985013,121.9522834670305,70.94,91.0,5.84,32.0
nishihara,23.545866176386554,130.5212428759309,73.89,88.0,18.34,90.0
jaisinghnagar,23.82301436369879,81.31484034407276,71.84,99.0,6.62,92.0
aswan,24.01148804468437,31.628048456575442,87.8,23.0,3.36,0.0
dali,24.367955016104503,100.42961300902738,61.13,100.0,1.99,88.0
suket,24.552060389382902,76.04027507539831,74.72,97.0,4.0,92.0
naze,24.695759401101498,136.50680419829382,73.4,100.0,3.36,75.0
progreso,24.740076182829966,-89.85689287709644,59.0,67.0,9.17,0.0
sanchor,25.04798294138365,71.91369018190903,79.94,74.0,8.3,68.0
gat,25.202429039405416,6.446418949744526,80.6,74.0,2.24,24.0
sabha,25.55809524968005,17.05730675834397,81.47,22.0,5.5,0.0
mandal,25.566575197864267,74.58764674493966,58.61,77.0,3.78,12.0
khor,25.615771139308194,52.71962336549288,72.38,69.0,5.57,36.0
guilin,25.7487706438296,109.37902816905324,78.8,88.0,4.47,75.0
awjilah,25.77613237065887,19.346008524789198,90.47,31.0,12.77,0.0
asyut,25.96149000557911,28.001305294594886,80.6,54.0,13.87,0.0
tonk,26.08775070780632,75.90598621223907,74.72,98.0,2.55,92.0
galveston,26.409336230584657,-93.05103410665075,74.32,94.0,4.7,90.0
hanyang,27.195838754739924,120.0403545241976,74.54,88.0,2.71,68.0
awbari,27.346601776605837,11.961404110549921,90.38,14.0,3.11,92.0
codrington,27.416529122302748,-45.344863875952,57.17,66.0,3.49,0.0
adrar,27.59627828362717,-3.95616408289132,93.2,20.0,6.93,0.0
lompoc,28.000998159908008,-127.95882369120011,72.39,27.0,10.29,1.0
lakeland,28.019985501400612,-81.9278302717117,82.04,74.0,10.29,75.0
bushehr,28.294339920998212,50.34446520340123,92.27,51.0,13.33,32.0
ziro,28.311260677435016,93.4724887756513,66.44,95.0,1.88,64.0
gasa,28.410987113572048,89.27747234946293,27.74,88.0,1.7,24.0
tiznit,28.824738607832757,-8.595202109706122,70.04,88.0,2.33,0.0
tateyama,28.98693596293522,142.14873996615626,75.2,88.0,5.82,75.0
shingu,28.991643278288052,136.2989594757516,82.4,65.0,14.99,40.0
nalut,29.04213076685646,9.755244001392697,76.07,66.0,6.35,0.0
hilo,29.183806624898267,-139.45493020894995,79.36,65.0,11.41,90.0
shenjiamen,29.311938724225655,123.77948765869479,82.46,95.0,3.83,32.0
pecos,30.99216929953593,-103.12646526428756,99.32,19.0,9.17,1.0
pokhara,31.575990102450405,85.53307424469756,60.68,66.0,3.6,20.0
savannah,32.06958148669379,-81.03663394230416,84.2,70.0,4.7,1.0
nador,32.07303346571284,-1.3999339988550332,74.95,73.0,1.12,24.0
darnah,32.24359895093522,22.957217060025016,81.65,95.0,4.05,0.0
tanabe,32.34875767444463,135.6685236986466,82.4,65.0,14.99,40.0
brownwood,32.36221529472117,-98.86448135017012,95.86,28.0,12.75,20.0
thomaston,32.50270475668337,-84.49646153840992,74.39,88.0,3.04,1.0
lasa,32.558534346295275,90.6856601432604,78.15,88.0,4.7,20.0
hanzhong,32.70125154083162,107.71334244815012,71.03,98.0,3.27,76.0
torbay,32.81641876693399,-47.90545075552336,68.0,88.0,6.93,40.0
danjiangkou,33.09523961322884,111.5735059087242,81.02,95.0,2.89,32.0
huilong,33.278549023988916,123.2804145672174,78.5,87.0,2.71,0.0
tabas,33.297853144716186,56.74208204488747,74.72,34.0,4.56,0.0
sanmenxia,33.74976855407708,110.89829304104182,81.92,79.0,3.38,0.0
vernon,33.883634155671885,-100.40447687219027,91.4,22.0,17.22,1.0
yabrud,33.89786329319128,38.289783305607045,69.8,77.0,20.8,0.0
bozhou,34.04640161245645,115.68786255551151,87.68,84.0,5.06,56.0
innoshima,34.2135261233868,133.39975120294275,80.6,39.0,5.82,40.0
jumla,34.26524585607204,85.96141847441538,38.09,90.0,3.04,32.0
semnan,34.35179177219622,54.15337023553221,77.96,50.0,5.06,44.0
salamiyah,35.01427153132201,37.947671318820966,67.07,91.0,11.1,0.0
hasaki,35.06018760289467,145.7525216083488,74.28,100.0,19.46,90.0
houma,35.72312638865512,111.17326068732228,79.4,81.0,3.22,32.0
algiers,36.2700411745823,3.5304399816030525,83.52,83.0,3.36,1.0
severo-kurilsk,36.44857239202305,164.04769543835033,54.65,94.0,3.56,56.0
ridgecrest,36.470242940075536,-117.20595026471848,109.4,3.0,8.05,1.0
arrifes,36.490638441257545,-27.144053533628266,68.0,82.0,7.58,75.0
nantucket,36.50235535627159,-68.74316565833652,75.96,94.0,16.11,40.0
enid,36.74814726094071,-98.51766434135185,91.4,46.0,8.05,40.0
kahului,36.904125326158095,-148.88479474845892,84.65,58.0,20.8,40.0
kumluca,36.971052035897216,29.972773188222845,57.89,86.0,1.88,0.0
archidona,37.05914208159126,-4.292823563461781,58.97,100.0,2.48,92.0
wuwei,37.16237346710497,103.09667629634777,61.22,86.0,4.12,0.0
lorca,37.83137452666692,-1.8651785294034937,66.08,86.0,2.48,32.0
kamaishi,38.35346697849829,143.55937218400538,77.0,69.0,16.11,40.0
fortuna,38.90113227866735,-132.7674893004716,80.6,83.0,1.12,40.0
salina,38.938738489675046,-97.84690721104161,72.73,94.0,4.7,1.0
kuybyshevo,39.86253680871698,71.32912673112426,76.52,97.0,8.52,20.0
agropoli,40.14823025374659,14.990210152772875,76.07,100.0,4.79,0.0
nemuro,40.17255274038459,149.01763739547778,60.8,82.0,11.41,75.0
oga,40.46379863758028,137.76772461074324,72.74,90.0,7.25,36.0
marion,40.587536668300174,-83.16044193842905,89.01,59.0,5.82,1.0
fairfield,41.29903699327491,-92.09065660734036,79.56,39.0,6.93,1.0
yumen,41.374398390799826,96.8223295000414,63.02,49.0,5.01,0.0
eureka,41.610233879973435,-128.40568612598605,57.97,87.0,8.05,90.0
fremont,41.92549873811194,-96.22459628910258,71.35,87.0,10.29,90.0
olga,42.03516592819307,137.29894058457347,94.59,23.0,8.05,1.0
akhmeta,42.08999398370787,45.25603346136748,78.8,65.0,2.21,75.0
kodiak,42.1194301843787,-157.29735328915595,82.4,65.0,6.93,1.0
jiayuguan,42.13641080091861,98.80969231347655,57.17,60.0,3.0,0.0
nurota,42.161107790474944,65.47122688637234,71.6,40.0,2.24,0.0
nikolskoye,42.19514604817519,175.25574906948373,55.4,93.0,2.24,20.0
nanae,42.34021146239627,140.12298336236546,64.4,82.0,18.34,75.0
arys,42.38225467751337,68.10541169283019,71.6,53.0,4.47,0.0
pocatello,42.51794379857688,-112.55993412572428,89.6,10.0,5.82,1.0
lagoa,42.82480654018505,-27.947822469274968,73.4,56.0,4.7,0.0
saint-pierre,43.2602675368521,-55.230413834663054,76.37,60.0,24.16,12.0
goragorskiy,43.5413781117409,45.071936216165454,75.62,72.0,2.82,68.0
shelburne,43.69416878000979,-65.11217061314584,75.16,78.0,4.7,90.0
tongliao,43.95547024988943,122.04820964503966,75.62,98.0,4.56,32.0
mujiayingzi,44.46119654046905,116.52520888364677,72.92,90.0,2.82,36.0
baruun-urt,44.46739325461658,114.58441319162745,65.72,78.0,1.77,0.0
saryozek,44.6981961095417,77.36975309373594,64.28,69.0,2.77,0.0
bran,45.4876187191297,25.38899873518548,54.02,87.0,1.99,12.0
trieste,45.68245027836849,13.67180439549034,71.73,82.0,6.93,8.0
hamilton,45.926558402663346,-113.89363541343712,76.28,78.0,4.7,90.0
hami,46.00689801944617,91.64295686516255,73.1,44.0,7.36,0.0
chamonix-mont-blanc,46.022914365988754,6.875418478250481,65.1,64.0,3.36,0.0
divnoye,46.10346473037464,43.17643605742097,70.85,72.0,3.56,20.0
hovd,46.17468493504464,99.92765091627456,62.49,59.0,6.62,0.0
challans,46.183736972285004,-2.269053713162208,64.99,88.0,3.36,90.0
zhezkazgan,46.55247219326637,66.52120303552181,62.84,78.0,4.12,0.0
merrill,46.5726135699411,-89.71563993815967,91.4,10.0,2.77,1.0
zaysan,46.614560690760186,84.3401305216081,56.63,90.0,2.59,56.0
baoshan,46.76190225358124,131.75518738540245,86.86,74.0,6.71,40.0
concarneau,47.125994159291736,-4.11168845859649,59.59,93.0,3.36,90.0
lewistown,47.70719956694225,-108.43508030950584,76.64,83.0,4.7,1.0
dolinsk,47.74037708754821,144.44118450095652,66.2,72.0,6.71,40.0
leninskoye,47.91838202781449,132.64949867909831,48.2,100.0,5.28,0.0
klenovyy,47.919759491877414,39.274071976465564,68.0,45.0,7.81,0.0
senneterre,47.970003723615974,-75.96490682673468,68.0,77.0,3.36,40.0
zalantun,48.21895330013069,122.62526771432448,71.48,87.0,3.38,20.0
botwood,48.29698082181267,-55.428544344219304,69.8,88.0,12.75,75.0
skibbereen,48.632669319910406,-10.499438520522403,53.6,100.0,8.05,75.0
krompachy,48.88271503838712,20.818983624189713,60.69,72.0,1.12,0.0
meaux,48.97818677937724,2.7987138566136878,70.99,64.0,19.46,75.0
vancouver,49.06412718026078,-123.29897570572382,93.97,30.0,10.29,1.0
gravelbourg,49.597496095297856,-107.2996079502524,86.78,23.0,10.31,12.0
kungurtug,49.882463904715166,98.00490231528875,46.55,85.0,2.48,92.0
abbeville,49.9121870448823,1.7667425075542553,66.2,88.0,10.29,90.0
saint-augustin,49.96244986602389,-59.095836656145934,66.02,77.0,5.82,0.0
fernie,50.24027312666388,-115.01848362158209,87.08,17.0,5.82,75.0
ladan,50.71835762262995,32.56175796739066,59.87,77.0,5.57,0.0
pemberton,50.87079431096112,-123.34781520874499,55.37,91.0,15.41,80.0
gimli,51.07763991003438,-98.16371888647183,72.56,88.0,10.42,36.0
petropavlovsk-kamchatskiy,51.15704853506702,161.83137924434482,59.0,87.0,4.47,90.0
ozernovskiy,51.33173114364709,155.96712724094488,55.28,100.0,4.23,56.0
vestmannaeyjar,51.842912480315704,-22.175707482736897,50.6,79.0,19.82,0.0
pershotravneve,51.896003167853536,28.560372198067512,58.97,84.0,2.82,0.0
dingle,52.12130494051286,-11.404625042138377,75.62,98.0,9.53,92.0
humboldt,52.14639543484475,-105.04800725481017,77.78,46.0,13.67,20.0
amazar,52.320143617449475,120.89123360083272,59.15,91.0,3.27,24.0
shimanovsk,52.37590949356655,127.99945426059986,72.38,63.0,5.35,64.0
matagami,52.468608090659416,-77.0230664463794,67.7,99.0,2.77,76.0
arnold,53.07593897830279,-1.129004674326012,78.57,100.0,4.9,1.0
vanderhoof,53.20837676492778,-124.15571126127381,77.42,31.0,5.84,0.0
sergeyevka,53.305418499197714,66.88481678561024,64.91,78.0,3.78,12.0
zlobin,53.5487111818008,29.206648472544856,77.0,73.0,3.36,0.0
abdulino,53.83700142874099,53.434242803622425,67.25,77.0,2.77,48.0
zhigalovo,54.24396241679872,105.2428311246477,55.19,79.0,2.89,0.0
troitsk,54.366148753294,61.6646523089274,61.85,88.0,2.82,24.0
beringovskiy,54.622288951135204,179.70268222201832,56.9,91.0,7.25,24.0
kargat,54.80593917889445,80.34528478596144,46.64,82.0,3.89,0.0
ketchikan,54.85446267546516,-133.83072810830697,70.5,41.0,12.75,40.0
provideniya,54.8556951290781,-177.9365935844212,50.0,81.0,11.18,90.0
scarborough,54.90932538624858,-0.5049542424234232,58.96,72.0,5.82,88.0
waterfoot,55.13144111153346,-6.048485047749267,55.38,71.0,3.36,20.0
vidim,55.56024778832955,102.99494734771656,75.42,60.0,4.7,0.0
mokrousovo,55.60054697268632,66.85827852254718,59.15,87.0,2.82,32.0
wladyslawowo,55.943870293810704,18.636414149854005,68.0,60.0,6.93,0.0
sitka,56.11969361932597,-135.70307599531367,85.07,66.0,4.61,0.0
montrose,56.455137025092455,-2.214247375241598,52.68,81.0,16.11,75.0
bethel,56.757581554104405,-160.59263138276341,60.8,59.0,11.41,90.0
tommot,56.768404867064135,127.47351756993697,62.3,80.0,2.77,64.0
ulkan,56.92753422169088,107.20507961452762,56.36,66.0,3.38,56.0
kichera,57.26685096276668,109.94227673307518,52.85,99.0,3.27,44.0
novobirilyussy,57.32948566848904,90.4146086908467,50.6,75.0,6.73,0.0
kungsbacka,57.39417205709742,12.06913751729843,68.0,52.0,10.29,0.0
paamiut,57.74045223736948,-52.979021831670224,45.65,86.0,29.1,92.0
smithers,57.7833230447298,-126.83097499474749,86.0,19.0,10.29,20.0
okhotsk,58.6450960632848,143.61631147180987,57.62,92.0,3.49,44.0
marjamaa,58.85763125681771,24.56763118613668,51.8,93.0,3.36,0.0
ust-ishim,58.89163948823199,71.14091059620083,60.59,94.0,4.34,0.0
kondinskoye,59.53656738328266,67.98725667789412,57.8,90.0,2.59,24.0
nikolsk,59.595583200167,45.060233618158804,53.39,81.0,5.84,68.0
solnechnyy,60.04947318857933,139.5641577552468,73.01,72.0,3.27,44.0
pangnirtung,60.06907380040562,-61.0652493488887,42.86,95.0,6.8,92.0
nanortalik,60.40520449152132,-43.16356906658817,43.22,94.0,12.39,80.0
vaksdal,60.44193890017394,5.6214288507218555,53.66,85.0,1.88,80.0
ust-omchug,61.02098332648467,150.1618127205117,50.24,96.0,3.38,88.0
kodinsk,61.11141679533878,98.97370244034153,53.84,76.0,3.89,0.0
lappeenranta,61.37097999257426,27.966686450873937,51.8,93.0,2.24,0.0
baykit,61.82054848481022,96.93675232081341,46.37,88.0,2.37,0.0
yerbogachen,61.9195983346749,105.02521578980276,55.28,66.0,3.71,0.0
kenai,62.00796049901001,-154.24497033401315,65.35,67.0,12.75,1.0
susuman,62.42568223278556,148.29918862851014,49.25,100.0,3.6,92.0
iqaluit,62.43053978769194,-74.58516564856676,50.0,71.0,11.41,75.0
vilyuysk,62.79338662114398,121.5124422006482,64.28,81.0,3.6,80.0
turukhansk,63.098553426858956,90.04835303182409,52.85,89.0,13.67,48.0
qaqortoq,63.46286408588199,-46.57279000073393,50.0,53.0,5.82,100.0
mayo,63.53183860868842,-133.43195520039637,64.4,59.0,2.24,90.0
dukat,63.75512530797653,154.98159485939794,59.87,93.0,1.77,0.0
sistranda,64.11364436632189,8.19088491184047,60.8,77.0,12.75,0.0
nadvoitsy,64.44653841331203,33.355146997998986,47.99,96.0,5.35,32.0
egvekinot,64.46678239476978,-177.89488387015155,51.05,75.0,3.04,20.0
vuktyl,64.4884839879345,57.55714063516237,50.69,97.0,5.84,48.0
rorvik,64.69406296374859,10.689856331509276,60.59,85.0,9.42,20.0
vestmanna,64.89267822610839,-7.3176295509828435,50.0,100.0,8.05,56.0
maniitsoq,64.98112004935089,-52.555151960686246,45.74,98.0,22.73,92.0
pangody,65.27665872584814,74.36506063151126,55.1,94.0,19.89,92.0
tasiilaq,65.4010299886944,-40.797489615861565,39.2,86.0,9.64,8.0
tura,65.72120365104374,99.18784365792249,75.8,95.0,3.04,36.0
klaksvik,66.68425945921214,-2.9038569267721073,50.0,100.0,8.05,80.0
thompson,66.81029250372512,-93.57211008642372,64.4,93.0,9.17,75.0
inuvik,67.27158116856734,-132.41542667986644,46.4,93.0,12.75,90.0
sisimiut,67.53969928776954,-56.01842180450792,50.96,92.0,0.81,100.0
srednekolymsk,67.71019313812846,154.06596356290487,51.68,61.0,4.79,12.0
kangaatsiaq,68.45374324193443,-53.55937349656955,44.84,94.0,1.54,100.0
kautokeino,68.50704208046966,23.25883150348335,41.42,78.0,5.01,0.0
zhigansk,68.69859729369085,120.42816938436363,65.54,62.0,3.04,0.0
verkhoyansk,69.17173867815507,132.62779166162295,63.38,55.0,3.71,0.0
aksarka,70.26934599307475,68.74692734695344,56.18,98.0,7.36,88.0
honningsvag,70.42879149901927,25.569188260914245,49.97,91.0,22.24,92.0
deputatskiy,70.51941881410247,141.5600297899888,52.22,57.0,8.08,0.0
fairbanks,71.00450359914737,-145.90070109179146,60.8,55.0,10.29,90.0
saskylakh,71.28162379153935,119.33382344490457,60.77,84.0,4.83,0.0
kamenka,71.40375580076346,44.41526389943036,60.59,91.0,9.64,8.0
hofn,71.52967079156139,-9.912249075708047,49.16,95.0,11.39,48.0
sorland,71.92435532640675,9.613946098040543,58.34,100.0,11.05,88.0
pevek,73.40413202447652,172.0267116744286,36.47,100.0,11.88,80.0
bilibino,73.82090452524935,164.65040146727415,52.22,62.0,3.11,12.0
kjollefjord,73.85923630400151,26.876889511781087,48.8,88.0,21.68,92.0
ilulissat,74.08168795437547,-47.36148773039503,55.4,62.0,14.99,75.0
dikson,75.0162026310285,85.11266760764596,49.16,81.0,20.38,36.0
vardo,75.6523382738086,34.474611104718406,74.17,83.0,3.27,1.0
tiksi,76.05699900541524,122.05581500684951,52.85,78.0,7.52,0.0
dudinka,76.17481297543827,86.9810309664582,52.85,71.0,16.08,92.0
aklavik,76.57782404584094,-140.21350331758546,46.4,93.0,12.75,90.0
longyearbyen,78.26694114437117,16.48545201335247,44.6,75.0,10.29,20.0
upernavik,78.620261008949,-57.793540856897906,42.32,86.0,6.06,92.0
cherskiy,78.66959807131227,157.9506049700331,46.64,68.0,4.23,0.0
narsaq,78.87733702203548,-67.1996869166685,50.0,53.0,5.82,64.0
khatanga,78.97770161082147,108.11972489112702,51.23,91.0,4.27,0.0
ostrovnoy,79.12686725129294,42.4941114620992,43.4,85.0,9.37,8.0
qaanaaq,79.13418362429158,-77.60479617463223,38.27,90.0,2.21,80.0
yellowknife,79.72820191236923,-110.37958056598247,64.4,55.0,3.36,75.0
tuktoyaktuk,82.60853104461961,-127.7932320117723,46.4,87.0,16.11,90.0
chokurdakh,83.37086672382179,149.0610135654792,41.78,88.0,8.3,0.0
mehamn,87.23981958774766,29.707245851887535,48.8,88.0,21.68,92.0
barrow,87.64171728764609,-144.27792800054362,56.18,100.0,9.64,92.0
leningradskiy,89.26062430433942,176.12430021468248,35.57,98.0,23.85,92.0
